locations:
  - title: Ubud
    lat: -8.504053
    lng: 115.253460
  - title: Seminyak
    lat: -8.674901
    lng: 115.146471
  - title: Gunung Batur
    lat: -8.240283
    lng: 115.377496
  - title: Blue Lagoon Beach
    lat: -8.529840
    lng: 115.513170
  - title: Tirta Empul Tempel
    lat: -8.454283
    lng: 115.305294
  - title: Reisterrassen
    lat: -8.432476
    lng: 115.279079
  - title: Uluwatu Tempel
    lat: -8.829105
    lng: 115.084730
